CITY,LATITUDE,LONGITUDE
CAIRO,30.0444,31.2357
LAGOS,6.5244,3.3792
KINSHASA,-4.4419,15.2663
CAPE TOWN,-33.9249,18.4241
JOHANNESBURG,-26.2041,28.0473
NAIROBI,-1.2864,36.8172
ADDIS ABABA,9.0244,38.7465
KHARTOUM,15.5007,32.5599
DAR ES SALAAM,-6.7924,39.2083
ALEXANDRIA,31.2001,29.9187
ABIDJAN,5.3599,-4.0083
CASABLANCA,33.5731,-7.5898
ACCRA,5.6037,-0.1870
KAMPALA,0.3476,32.5825
MAPUTO,-25.9653,32.5892
TUNIS,36.8065,10.1815
