City,Latitude,Longitude
LONDON,51.5074,-0.1278
PARIS,48.8566,2.3522
BERLIN,52.5200,13.4050
MADRID,40.4168,-3.7038
ROME,41.9028,12.4964
AMSTERDAM,52.3676,4.9041
VIENNA,48.2082,16.3738
BRUSSELS,50.8503,4.3517
LISBON,38.7223,-9.1393
DUBLIN,53.3498,-6.2603
STOCKHOLM,59.3293,18.0686
COPENHAGEN,55.6761,12.5683
OSLO,59.9139,10.7522
HELSINKI,60.1695,24.9354
ZURICH,47.3769,8.5417
BARCELONA,41.3851,2.1734