City,Latitude,Longitude
MEXICO CITY,19.4326,-99.1332
BUENOS AIRES,-34.6037,-58.3816
BRASILIA,-15.8267,-47.9218
BOGOTA,4.7109,-74.0721
LIMA,-12.0464,-77.0428
SANTIAGO,-33.4489,-70.6693
QUITO,-0.1807,-78.4678
CARACAS,10.4806,-66.9036
ASUNCION,-25.2637,-57.5759
MONTEVIDEO,-34.9011,-56.1645
RIO DE JANEIRO,-22.9068,-43.1729
SAO PAULO,-23.5505,-46.6333
LA PAZ,-16.5074,-68.1303
SANTACRUZ,-17.7833,-63.1667
GEORGETOWN,6.8013,-58.1551
PARAMARIBO,5.8520,-55.2038
SUCRE,-19.0431,-65.2599